[{"id":"5f14ec71817efc3b6000c10b","cloverMerchantId":"9QPTP66T7X9BE","ncrMerchantId":null,"microsMerchantId":null,"toastMerchantId":null,"name":"Gina's Italian Kitchen & Tavern","address1":"1005 Eaton Ave, Hamilton","address2":"Address Line Text 2","address3":"Address Line Text 3","city":"Hamilton","state":"OH","zipCode":"45013","phone":"(513) 889-1530","contactName":null,"contactEmail":"chris@lwaldtech.com","website":null,"contactPhone":"(513) 889-1530","latitude":null,"longitude":null,"token":null,"bgEmpID":"JKMGRS4KKB66Y","isActive":true,"posId":null,"createdDate":"2020-07-20T00:59:29.204+00:00","merchantId":"9QPTP66T7X9BE","imageUrls":null},{"id":"5f3034fb3707f96630f6c881","cloverMerchantId":"3WWKJNZM5FA91","ncrMerchantId":null,"microsMerchantId":null,"toastMerchantId":null,"name":"Five Points Bar","address1":"891 Bishop Ave","address2":"Suite 12","address3":"DESK E7","city":"Hamilton","state":"OH","zipCode":"45013","phone":"5132556814","contactName":null,"contactEmail":"chris@lwaldtech.com","website":null,"contactPhone":"5132556814","latitude":null,"longitude":null,"token":null,"bgEmpID":"MP4GY6VJS8PX0","isActive":true,"posId":null,"createdDate":"2020-08-09T17:40:11.654+00:00","merchantId":"3WWKJNZM5FA91","imageUrls":null},{"id":"5f5bd357a33c1abee7f60baa","cloverMerchantId":"2XEHCYJQ20M01","ncrMerchantId":null,"microsMerchantId":null,"toastMerchantId":null,"name":"Treys Trays","address1":"2424 GOTG Blvd","address2":null,"address3":null,"city":"CO Spgs","state":"CO","zipCode":"80919","phone":"8647777777","contactName":null,"contactEmail":null,"website":null,"contactPhone":"8647777777","latitude":null,"longitude":null,"token":null,"bgEmpID":"ASBKF768Y9TJM","isActive":true,"posId":null,"createdDate":"2020-09-11T19:43:19.831+00:00","merchantId":"2XEHCYJQ20M01","imageUrls":null},{"id":"600a2252d517b7a05b50be51","cloverMerchantId":"YJ0F54QW72T51","ncrMerchantId":null,"microsMerchantId":null,"toastMerchantId":null,"name":"BARGUARD","address1":"855 Columbia Rd","address2":"","address3":null,"city":"Hamilton","state":"Ohio","zipCode":"45013","phone":"5132556814","contactName":null,"contactEmail":"chris@barguard.net","website":null,"contactPhone":"5132556814","latitude":null,"longitude":null,"token":null,"bgEmpID":"ZT367ZA6PFKPE","isActive":true,"posId":null,"createdDate":"2021-01-22T00:54:42.297+00:00","merchantId":"YJ0F54QW72T51","imageUrls":null},{"id":"600a31ed93406eb2ecdc8271","cloverMerchantId":"0M1MKEZE8R661","ncrMerchantId":null,"microsMerchantId":null,"toastMerchantId":null,"name":"Mike's Flower Shop","address1":"1368 Carriage Hill Ln","address2":"Address line 2 text","address3":"address line 3 text","city":"Hamilton","state":"OH","zipCode":"45013","phone":"5132556814","contactName":null,"contactEmail":"chris@lwaldtech.com","website":null,"contactPhone":"5132556814","latitude":null,"longitude":null,"token":null,"bgEmpID":"SJKSXD1S7Y5XR","isActive":true,"posId":null,"createdDate":"2021-01-22T02:01:17.004+00:00","merchantId":"0M1MKEZE8R661","imageUrls":null}]